City_ID,City,Country,Max Temp,Current Description,Lat,Lng,Hotel Name
0,Busselton,AU,54.32,light rain,-33.65,115.3333,Observatory Guest House
1,Viedma,AR,68.05,overcast clouds,-40.8135,-62.9967,Hotel Cristal
2,Puerto Ayora,EC,81.55,overcast clouds,-0.7393,-90.3518,Finch Bay Galapagos Hotel
3,Turan,VN,75.18,few clouds,16.0678,108.2208,Grand Mercure Danang
4,Torbay,CA,49.28,overcast clouds,47.6666,-52.7314,Gallows Cove
5,Praia Da Vitoria,PT,61.05,scattered clouds,38.7333,-27.0667,Hotel Branco I
6,Goderich,CA,37.9,overcast clouds,43.7501,-81.7165,Harmony Inn
7,Yulara,AU,60.64,clear sky,-25.2406,130.9889,Desert Gardens Hotel - Ayers Rock Resort
8,Port Elizabeth,ZA,67.1,scattered clouds,-33.918,25.5701,39 On Nile Guest House
9,Mahebourg,MU,77.29,broken clouds,-20.4081,57.7,Shandrani Beachcomber Resort & Spa
10,Ponta Do Sol,PT,68.63,scattered clouds,32.6667,-17.1,Hotel do Campo
11,Cherskiy,RU,-15.02,overcast clouds,68.75,161.3,Gostinitsa
12,Bandarbeyla,SO,81.57,clear sky,9.4942,50.8122,JABIR HOTEL
13,Olga,RU,39.06,overcast clouds,43.7444,135.2892,Gostinitsa Rosmorport.
14,Punta Arenas,CL,50.11,clear sky,-53.15,-70.9167,Hotel Hain
15,Zheleznodorozhnyy,RU,45.12,overcast clouds,55.7503,38.0042,Hotel Dali
16,Barrow,US,-9.38,overcast clouds,71.2906,-156.7887,King Eider Inn
17,Nizwa,OM,87.28,overcast clouds,22.9333,57.5333,Orient Apartments
18,Tasiilaq,GL,30.36,scattered clouds,65.6145,-37.6368,The Red House
19,Severo-Kurilsk,RU,29.7,overcast clouds,50.6789,156.125,Kak Doma
20,Vaini,TO,77.16,few clouds,-21.2,-175.2,Keleti Beach Resort
21,Jamestown,US,38.52,overcast clouds,42.097,-79.2353,Hampton Inn & Suites Jamestown
22,Naze,JP,67.12,overcast clouds,28.3667,129.4833,Shishime Hotel
23,Khatanga,RU,1.22,overcast clouds,71.9667,102.5,"""Khatanga"""
24,Saint-Philippe,RE,78.39,light rain,-21.3585,55.7679,"Chambres d'hôte ""La Trinité"""
25,Mayumba,GA,79.18,overcast clouds,-3.432,10.6554,LIKWALE LODGE
28,Mount Gambier,AU,57.11,broken clouds,-37.8333,140.7667,The Commodore
29,La Ronge,CA,23.25,overcast clouds,55.1001,-105.2842,Northland Motor Hotel
30,Iqaluit,CA,26.33,light snow,63.7506,-68.5145,Frobisher Inn
31,Ushuaia,AR,46.06,broken clouds,-54.8,-68.3,Albatross Hotel
32,Upernavik,GL,5.9,broken clouds,72.7868,-56.1549,Café de Upernavik
33,Trinidad,BO,85.69,scattered clouds,-14.8333,-64.9,Hotel Piesta
34,Guerrero Negro,MX,68.22,few clouds,27.9769,-114.0611,"Casa Laguna, Bed & Breakfast"
35,Hermanus,ZA,66.79,clear sky,-34.4187,19.2345,Misty Waves Boutique Hotel
37,Balabac,PH,74.55,light rain,7.9868,117.0645,Batalla’s Lodging House
38,Coquimbo,CL,60.53,broken clouds,-29.9533,-71.3436,Hotel San Juan
39,Mar Del Plata,AR,75.09,broken clouds,-38.0023,-57.5575,Gran Hotel Mar del Plata
40,Ngorongoro,TZ,55.76,overcast clouds,-3.2397,35.4875,Simba Special Campsite B
41,Hithadhoo,MV,83.84,scattered clouds,-0.6,73.0833,Scoop Guest House
42,Mahon,ES,57.76,clear sky,39.8885,4.2658,ARTIEM Capri
43,Chuy,UY,76.82,clear sky,-33.6971,-53.4616,Nuevo Hotel Plaza
44,New Norfolk,AU,53.65,broken clouds,-42.7826,147.0587,The Shingles Riverside Cottages
45,Basco,PH,79.02,broken clouds,20.4487,121.9702,Nathaniel's Lodge
46,Lebu,CL,56.08,scattered clouds,-37.6167,-73.65,Hostal Las Lilas
47,Baiyin,CN,55.0,scattered clouds,36.5583,104.2081,GreenTree Alliance Gansu Baiyin Renmin Road Hotel
48,Georgetown,MY,82.33,few clouds,5.4112,100.3354,Cititel Penang
49,Grindavik,IS,40.95,broken clouds,63.8424,-22.4338,Northern Light Inn & Max's Restaurant
50,Obigarm,TJ,62.58,overcast clouds,38.7173,69.7088,Гармоба
51,Miri,MY,75.34,few clouds,4.4148,114.0089,"Mega Hotel, Miri"
52,Lompoc,US,72.61,haze,34.6391,-120.4579,"Holiday Inn Express Lompoc, an IHG Hotel"
53,Tautira,PF,81.7,light rain,-17.7333,-149.15,Pension Oaoa
54,Nome,US,28.47,overcast clouds,64.5011,-165.4064,Dredge 7 Inn
55,Bluff,NZ,47.16,few clouds,-46.6,168.3333,Bluff Homestead - Guesthouse & Campervan Park
56,Bethel,US,48.04,overcast clouds,41.3712,-73.414,Courtyard by Marriott Danbury
57,Qaanaaq,GL,-0.31,scattered clouds,77.484,-69.3632,Qaanaaq Hotel
58,Bacolod,PH,74.32,heavy intensity rain,10.6667,122.95,Planta Hotel & Residences
59,Mataura,NZ,39.69,few clouds,-46.1927,168.8643,Ellie's Villa
60,Hasaki,JP,57.29,scattered clouds,35.7333,140.8333,Inubosaki Kanko Hotel
61,Kaitangata,NZ,43.93,few clouds,-46.2817,169.8464,Kaitangata Motor Camp
62,Flinders,AU,65.48,scattered clouds,-34.5833,150.8552,Shellharbour Resort & Conference Centre
63,Tual,ID,83.3,light rain,-5.6667,132.75,Grand Vilia Hotel
64,Dubti,ET,93.96,clear sky,11.7361,41.0853,degu Shiferaw
65,Itaituba,BR,80.76,scattered clouds,-4.2761,-55.9836,Hotel Campos
66,Hilo,US,72.1,clear sky,19.7297,-155.09,Hilo Hawaiian Hotel
67,Kandrian,PG,77.18,few clouds,-6.2167,149.55,Kandrian Station
69,Bunia,CD,66.56,overcast clouds,1.5667,30.25,Gold Star International Hotel
70,Saint George,US,62.8,clear sky,37.1041,-113.5841,Best Western Plus Abbey Inn
72,Houma,US,78.01,clear sky,29.5958,-90.7195,Courtyard by Marriott Houma
73,Talnakh,RU,-6.47,overcast clouds,69.4865,88.3972,Talnakh Hotel
75,Boguchany,RU,25.25,overcast clouds,58.3814,97.4531,Uyut
76,Avarua,CK,78.85,few clouds,-21.2078,-159.775,Paradise Inn
77,Butaritari,KI,80.55,light rain,3.0707,172.7902,Isles Sunset Lodge
79,Fairbanks,US,15.22,overcast clouds,64.8378,-147.7164,Westmark Fairbanks Hotel & Conference Center
80,Cape Town,ZA,74.1,clear sky,-33.9258,18.4232,"Radisson Blu Hotel Waterfront, Cape Town"
81,Manggar,ID,78.73,overcast clouds,-2.8833,108.2667,Guest Hotel
82,Port Alfred,ZA,63.18,overcast clouds,-33.5906,26.891,The Halyards Hotel
83,Necochea,AR,72.55,overcast clouds,-38.5473,-58.7368,dyd -mar Hotel
85,Codrington,AU,58.48,overcast clouds,-38.2667,141.9667,Codrington Gardens Bed And Breakfast
87,Mount Vernon,US,50.0,broken clouds,40.9126,-73.8371,Ramada by Wyndham Bronx
88,Narsaq,GL,39.42,overcast clouds,60.9167,-46.05,Sleep In Narsaq
89,Pudozh,RU,35.11,clear sky,61.8099,36.5345,Guest-House na Transportnoy
90,Visnes,NO,41.83,scattered clouds,59.3556,5.2242,Park Inn Haugesund Airport
91,Ithaca,US,41.97,overcast clouds,42.4406,-76.4966,Meadow Court Inn
93,Longhua,CN,68.7,clear sky,23.6137,114.1919,Huadu Hotel
96,Kavieng,PG,81.64,overcast clouds,-2.5744,150.7967,Nusa Island Retreat
97,Bambous Virieux,MU,77.25,light rain,-20.3428,57.7575,Casa Tia Villa
98,Rio Grande,BR,82.51,scattered clouds,-32.035,-52.0986,Hotel Atlântico Rio Grande
99,Kulhudhuffushi,MV,85.21,broken clouds,6.6221,73.07,Haajy Guest House 1
100,Hamilton,US,59.25,clear sky,39.1834,-84.5333,Six Acres Bed & Breakfast
101,Honningsvag,NO,37.15,clear sky,70.9821,25.9704,Nordkapp Vandrerhjem
102,Atuona,PF,78.85,few clouds,-9.8,-139.0333,Villa Enata
103,Mongo,TD,92.08,overcast clouds,12.1844,18.693,Résidences du Programme FIDA
104,Rikitea,PF,78.87,light rain,-23.1203,-134.9692,People ThankYou
105,Tarime,TZ,69.12,overcast clouds,-1.35,34.3667,Kifa Best Point Hotel
106,Sinnamary,GF,82.18,broken clouds,5.3833,-52.95,ALETHEIA Appartement Sinnamary
107,Constitucion,CL,57.87,scattered clouds,-35.3333,-72.4167,Hotel Boutique Las Azucenas
108,Souillac,MU,77.38,light rain,-20.5167,57.5167,Shanti Maurice Resort & Spa
109,Cabo San Lucas,MX,78.62,clear sky,22.8909,-109.9124,Hotel Tesoro Los Cabos
110,Lasa,IT,45.48,scattered clouds,46.6166,10.7002,Pension Feldgärtenhof
111,Clyde River,CA,3.43,broken clouds,70.4692,-68.5914,Qamaq Hotel
115,Port Lincoln,AU,62.76,overcast clouds,-34.7333,135.8667,Port Lincoln Hotel
116,Kahului,US,76.84,scattered clouds,20.8947,-156.47,Maui Seaside Hotel
117,Kapaa,US,74.48,broken clouds,22.0752,-159.319,Sheraton Kauai Coconut Beach Resort
118,Tunceli,TR,52.16,broken clouds,39.1083,39.5471,Grand Hotel Şaroğlu
119,Arraial Do Cabo,BR,84.16,scattered clouds,-22.9661,-42.0278,Pousada Porto Praia
120,Atambua,ID,71.47,scattered clouds,-9.1061,124.8925,Kost Alfa Flat
121,Carnarvon,AU,68.07,clear sky,-24.8667,113.6333,Hospitality Carnarvon
122,Kamaishi,JP,53.26,clear sky,39.2667,141.8833,Hotel Route Inn Kamaishi
124,Thabazimbi,ZA,59.2,light rain,-24.5917,27.4116,Eagle's Rest
125,Fortuna,US,52.93,broken clouds,40.5982,-124.1573,Super 8 by Wyndham Fortuna
126,Moranbah,AU,69.13,few clouds,-22.0016,148.0466,Direct Hotels - Monterey Moranbah
127,Hobart,AU,54.01,overcast clouds,-42.8794,147.3294,St Ives Hobart Accommodation Tasmania
128,Makakilo City,US,74.01,overcast clouds,21.3469,-158.0858,Marriott's Ko Olina Beach Club
129,Geraldton,AU,63.01,overcast clouds,-28.7667,114.6,Broadwater Mariner Resort
130,Linjiang,CN,49.03,scattered clouds,41.8069,126.9078,格林豪泰
131,Te Anau,NZ,48.29,few clouds,-45.4167,167.7167,Kingsgate Hotel Te Anau
132,Borba,BR,74.79,moderate rain,-4.3878,-59.5939,Hotel da Amazônia
133,San Quintin,MX,64.74,scattered clouds,30.4833,-115.95,Don Eddie's Sport Fishing Center
135,Vardo,NO,37.38,clear sky,70.3705,31.1107,Vardø Hotel AS
136,Komsomolskiy,UZ,68.72,overcast clouds,40.4272,71.7189,Ikathouse
137,Antofagasta,CL,65.48,few clouds,-23.65,-70.4,"Holiday Inn Express Antofagasta, an IHG Hotel"
138,Bandar-E Lengeh,IR,82.51,dust,26.5579,54.8807,کافی نت پارس
139,Pinega,RU,37.26,overcast clouds,64.7001,43.3936,"Gostevoy Dom Ooo ""Pinezh'yeles"""
140,Olafsvik,IS,38.68,overcast clouds,64.8945,-23.7142,Hotel Olafsvik
142,Santa Cruz,BO,89.65,broken clouds,-17.8,-63.1667,Aviador Hotel Boutique
143,Tukrah,LY,61.0,clear sky,32.5341,20.5791,Lagrota restaurant
144,Pisco,PE,73.02,overcast clouds,-13.7,-76.2167,Hotel San Isidro Oficial
145,Thompson,CA,35.76,overcast clouds,55.7435,-97.8558,Burntwood Hotel
146,Victoria,HK,77.18,clear sky,22.2855,114.1577,Mini Hotel Central
147,Isangel,VU,78.91,broken clouds,-19.55,169.2667,Tanna Lodge
148,Ixtapa,MX,81.63,clear sky,20.7,-105.2,hotel la terminal
150,Bathsheba,BB,86.61,broken clouds,13.2167,-59.5167,Atlantis Hotel
151,Nuevo Progreso,MX,83.53,scattered clouds,23.1667,-97.95,Balneario Rio el Paraiso
152,Severnyy,RU,59.04,overcast clouds,50.677,36.5532,Full House North Mini-Hotel
154,Karratha,AU,81.73,clear sky,-20.7377,116.8463,ibis Styles Karratha
155,Esperance,AU,58.84,clear sky,-33.8667,121.9,Hospitality Esperance
156,Bredasdorp,ZA,64.78,clear sky,-34.5322,20.0403,Bredasdorp Country Manor
157,Skjervoy,NO,35.6,scattered clouds,70.0311,20.9714,Skjervøy fiskecamp AS
158,Aguas Formosas,BR,89.71,scattered clouds,-17.0822,-40.9358,HOTEL HAVAY PALACE
159,Stornoway,GB,46.36,overcast clouds,58.2093,-6.3865,Caladh Inn
160,Puerto Colombia,CO,89.69,overcast clouds,10.9878,-74.9547,Hotel El Emigrante
162,Olaine,LV,42.76,few clouds,56.7853,23.9381,"SIA Zemgales 29 , Hostelis"
163,Tomatlan,MX,92.32,clear sky,19.9333,-105.25,El Salvial
164,Tiksi,RU,-16.24,overcast clouds,71.6872,128.8694,Arktika
165,Honiara,SB,76.51,scattered clouds,-9.4333,159.95,Heritage Park Hotel
166,Macia,MZ,68.97,light rain,-25.0269,33.0989,Hotel Taskin Macia
167,North Bend,US,47.16,overcast clouds,43.4065,-124.2243,Red Lion Hotel Coos Bay
168,Shimoda,JP,60.1,overcast clouds,34.6667,138.95,Shimoda Tokyu Hotel
169,Casablanca,MA,80.82,overcast clouds,33.5928,-7.6192,فندق البيت المغربي كازبلانكا
170,Waingapu,ID,76.12,scattered clouds,-9.6567,120.2641,Pondok Wisata Elim
171,Kodiak,US,35.11,clear sky,57.79,-152.4072,Best Western Kodiak Inn And Convention Center
172,Longyan,CN,63.99,clear sky,25.1072,117.0225,Jinjiang Inn Longyan Zhongshan Road Pedestrian Street
173,Salalah,OM,82.49,clear sky,17.0151,54.0924,"HAMDAN PLAZA HOTEL SALALAH, an HTG Hotel"
174,Kannur,IN,80.67,broken clouds,11.8675,75.3576,Asokam Beach Resort and Ayurveda Chikitsa Kendram
175,Pevek,RU,-21.53,overcast clouds,69.7008,170.3133,Severnoye Zoloto
176,Krasnoznamensk,RU,44.58,clear sky,55.5994,37.0386,"Golitsyno, Umts"
177,Isabela,PH,78.33,overcast clouds,6.7085,121.9711,Isawad Resort
178,Shingu,JP,57.76,overcast clouds,33.7333,135.9833,Shingu UI Hotel
179,Rudnya,RU,41.02,overcast clouds,54.947,31.0934,Paradoks
180,East London,ZA,67.14,scattered clouds,-33.0153,27.9116,Tu Casa
181,Tupik,RU,14.14,overcast clouds,54.4253,119.9327,Guest House Orkhideya
182,Baracoa,CU,78.73,broken clouds,20.3467,-74.4958,Hostal Rio Miel
184,San Cristobal,VE,78.98,overcast clouds,7.7669,-72.225,Pirineos
185,Taitung,TW,71.87,broken clouds,22.7583,121.1444,Taitung Bali Suites Hotel
186,Whitehorse,CA,19.09,broken clouds,60.7161,-135.0538,The Sternwheeler Hotel & Conference Centre
187,Charters Towers,AU,70.88,scattered clouds,-20.1,146.2667,Cattleman's Rest Motor Inn
188,Kuryk,KZ,62.78,clear sky,43.2,51.65,Gostinitsa Kuryk - Otel' Dlya Vsekh Kategoriy Kliyentov .
189,Kailua,US,77.07,overcast clouds,21.4022,-157.7394,Sheffield House Bed & Breakfast
191,Christchurch,NZ,55.94,broken clouds,-43.5333,172.6333,The George
192,Huilong,CN,62.92,few clouds,31.8111,121.655,Hilton Garden Inn Qidong
193,Rabaul,PG,80.11,broken clouds,-4.1967,152.1721,Rabaul Hotel
194,Dvinskoy,RU,39.34,overcast clouds,62.1535,45.1175,Gostinitsa Dvinskaya
195,Tamandare,BR,83.34,broken clouds,-8.7597,-35.1047,Pousada 100 Passos
196,San Policarpo,PH,80.22,overcast clouds,12.1791,125.5072,Agapita M. Nicart
197,San Roque,ES,63.43,scattered clouds,36.2107,-5.3842,Hotel Guadacorte Park
198,Ribeira Grande,PT,57.6,scattered clouds,38.5167,-28.7,Quinta da Meia Eira
199,Lazurne,UA,48.76,overcast clouds,46.084,32.5295,New Manna Hostel
200,Ancud,CL,55.22,overcast clouds,-41.8697,-73.8203,Hotel Arena Gruesa
201,Gladstone,AU,71.53,broken clouds,-23.85,151.25,Highpoint International Hotel
202,Shieli,KZ,73.56,overcast clouds,44.1667,66.75,Gostinitsa Aybek Shieli
203,Lagoa,PT,55.94,overcast clouds,39.05,-27.9833,Casa Das Faias
204,Arlit,NE,95.16,clear sky,18.7369,7.3853,Case de Passage De la Prefecture
206,Mount Isa,AU,85.77,scattered clouds,-20.7333,139.5,ibis Styles Mt Isa Verona
207,Sukhumi,GE,62.49,overcast clouds,43.0033,41.0153,Ritsa Hotel
209,Sao Filipe,CV,74.44,clear sky,14.8961,-24.4956,Hotel Xaguate
210,Haverfordwest,GB,53.19,overcast clouds,51.8017,-4.9691,Coastal Cottages of Pembrokeshire
211,New Iberia,US,78.96,clear sky,30.0035,-91.8187,La Quinta Inn & Suites by Wyndham New Iberia
212,Cockburn Town,TC,78.8,broken clouds,21.4612,-71.1419,Osprey Beach Hotel
213,Guane,CU,86.18,few clouds,22.2025,-84.0875,base de Campismo LosPortales de Guane
214,Pishin,PK,74.93,clear sky,30.5803,66.9961,City Hotel Pishin
215,Vao,NC,77.41,overcast clouds,-22.6667,167.4833,Hotel Kou-Bugny
216,Altay,CN,33.04,scattered clouds,47.8667,88.1167,Jinqiao Hotel
217,Pemangkat,ID,79.3,broken clouds,1.1667,108.9667,Ramah Kost KITA
218,Faanui,PF,81.66,light rain,-16.4833,-151.75,Bora-Bora Pearl Beach Resort & Spa
219,Bengkulu,ID,75.11,overcast clouds,-3.8004,102.2655,Grage Hotel Bengkulu
220,Buala,SB,79.12,few clouds,-8.145,159.5921,Maringe Lagoon Lodge
221,Chincholi,IN,93.18,overcast clouds,17.4667,77.4333,Friends men's were
222,Hay River,CA,15.78,light snow,60.8156,-115.7999,Ptarmigan Inn
223,Bom Jesus Da Lapa,BR,101.39,few clouds,-13.255,-43.4181,Hotel das Nações
224,Saint-Pierre,RE,78.48,broken clouds,-21.3393,55.4781,Lindsey Hôtel
225,Albina,SR,83.55,overcast clouds,5.5,-54.05,Hudace
226,Aloleng,PH,80.73,overcast clouds,16.1307,119.7824,Steve Walden and Emma Sison-Walden Residence
227,Redlands,US,79.2,haze,34.0556,-117.1825,Dynasty Suites Redlands
228,Fort-Shevchenko,KZ,55.22,clear sky,44.5086,50.263,Oasis hotel Bautino
229,Baringo,KE,80.37,broken clouds,0.4667,35.9667,Khoisang Hostels
230,Kloulklubed,PW,79.3,overcast clouds,7.0419,134.2556,Storyboard Beach Resort
231,Klos,AL,45.55,overcast clouds,41.5072,20.0851,Hotel Golden Park KLOS
233,Broome,US,40.46,overcast clouds,42.2506,-75.833,Chenango Valley State Park
234,Brae,GB,38.35,overcast clouds,60.3964,-1.353,Busta House Hotel
237,Dudinka,RU,-16.53,overcast clouds,69.4058,86.1778,Hotel Viktoria
238,Seoul,KR,54.97,scattered clouds,37.5683,126.9778,롯데호텔 서울
239,Margate,GB,51.31,overcast clouds,51.3813,1.3862,Premier Inn Margate hotel
240,Belyy Yar,RU,31.89,clear sky,53.6039,91.3903,Pasportnyy Stol
241,Marsh Harbour,BS,68.68,clear sky,26.5412,-77.0636,Abaco Beach Resort
242,Pangody,RU,32.38,light snow,65.85,74.4859,Elizaveta Shevchuk's House
244,Ambulu,ID,74.84,clear sky,-8.345,113.6058,Hotel Ambulu Jember
245,Tuktoyaktuk,CA,-5.8,broken clouds,69.4541,-133.0374,End of The Road Ltd.
246,Labuhan,ID,78.33,broken clouds,-6.8844,112.2051,DoubleFAG
247,Yeppoon,AU,71.38,overcast clouds,-23.1333,150.7333,Villa Mar Colina
249,Kant,IN,87.82,clear sky,27.8,79.8,Haseeb Khan shatreng
250,Hami,CN,53.13,overcast clouds,42.8,93.45,Laoyutang Resort
251,Trelew,AR,62.83,clear sky,-43.249,-65.3051,Hotel Touring Club
252,Kupino,RU,31.51,clear sky,54.3663,77.2981,Hotel Sibiria Inn
253,Orel-Izumrud,RU,57.22,overcast clouds,43.4583,39.9244,Strana Magnoliy
254,Masterton,NZ,48.43,clear sky,-40.9597,175.6575,Copthorne Hotel & Resort Solway Park Wairarapa
255,Sakakah,SA,81.97,broken clouds,29.9697,40.2064,Fakhamat Al Orjoana Apartment
256,Andros Town,BS,76.96,few clouds,24.7,-77.7667,Hanks place
257,Maun,BW,73.36,broken clouds,-19.9833,23.4167,Enviro Villa
258,Athabasca,CA,28.81,overcast clouds,54.7169,-113.2854,Athabasca Lodge Motel
259,Kuusamo,FI,33.84,broken clouds,65.9667,29.1833,Hotel Kuusanka
260,Saint Anthony,US,57.76,clear sky,45.0205,-93.218,"Holiday Inn Express Roseville-St. Paul, an IHG Hotel"
261,Laguna,US,66.29,clear sky,38.421,-121.4238,"Holiday Inn Express & Suites Elk Grove Central - Hwy 99, an IHG Hotel"
262,Sovetskiy,RU,36.52,overcast clouds,61.3614,63.5842,Apartment on Kievskaya 29
263,Havre,FR,55.17,few clouds,49.5833,0.3333,gite bois jourdain
264,Taltal,CL,65.46,clear sky,-25.4,-70.4833,Residencial Karime
265,Turukhansk,RU,-7.35,broken clouds,65.8167,87.9833,"ООО ""Туруханская пушнина"""
266,Hobyo,SO,82.96,clear sky,5.3505,48.5268,Iftin hotel hobyo
267,Fort Smith,US,78.19,clear sky,35.3859,-94.3986,Hampton Inn Fort Smith
268,Alofi,NU,75.09,scattered clouds,-19.0595,-169.9187,Taloa Heights
269,Kavaratti,IN,83.97,overcast clouds,10.5669,72.642,Hotels in Lakshadweep Islands
270,Balkanabat,TM,61.07,overcast clouds,39.5108,54.3671,Nebitchi Hotel
271,Yellowknife,CA,13.41,scattered clouds,62.456,-114.3525,The Explorer Hotel
272,Achalpur,IN,91.33,clear sky,21.2572,77.5086,Aashiyana Building
273,Xichang,CN,57.88,broken clouds,27.8964,102.2634,Xichang ibis Hotel
274,Longyearbyen,SJ,13.84,scattered clouds,78.2186,15.6401,"Radisson Blu Polar Hotel, Spitsbergen"
275,Kapoeta,SS,89.69,broken clouds,4.7717,33.5903,Eastgate Hotel
276,Havelock,US,57.97,clear sky,34.8791,-76.9013,Sherwood Motel
277,Oktyabrskoye,RU,55.54,scattered clouds,43.0645,44.7417,Prolesok Mini-hotel
278,Havoysund,NO,39.43,scattered clouds,70.9963,24.6622,Arctic View Glamping & Restaurant
280,Sitka,US,37.29,clear sky,57.0531,-135.33,Westmark Sitka
281,Abu Kamal,SY,77.0,broken clouds,34.4506,40.9171,محطة التلفاز
282,Tuatapere,NZ,44.38,clear sky,-46.1333,167.6833,Ron and Tony's Bed & Breakfast
283,Ambilobe,MG,74.89,scattered clouds,-13.2,49.05,Hôtel & Restaurant DIANA Ambilobe
284,Quatre Cocos,MU,77.11,light rain,-20.2078,57.7625,Sunrise Attitude Hotel
285,Cruz Grande,MX,93.27,few clouds,16.7333,-99.1333,Hotel Camila
286,Mastung,PK,72.37,few clouds,29.7994,66.845,Al Hasnan Cold Drink Santer
287,Kudahuvadhoo,MV,84.72,clear sky,2.6708,72.8944,Niyama Private Islands Maldives
288,Omboue,GA,78.03,overcast clouds,-1.5746,9.2618,Hotel Olako
289,Svencionys,LT,36.82,broken clouds,55.15,26.1667,Šviesa
290,Dingle,PH,72.75,light rain,10.9995,122.6711,SEGAYA PROPERTY
291,Hovd,MN,28.42,clear sky,48.0056,91.6419,Hotel Khovd
292,Nelson Bay,AU,64.0,clear sky,-32.7167,152.15,Mantra Nelson Bay
293,Half Moon Bay,US,68.59,scattered clouds,37.4636,-122.4286,"The Ritz-Carlton, Half Moon Bay"
294,Denpasar,ID,80.26,scattered clouds,-8.65,115.2167,OYO 3156 Hotel Warta 2
295,Takoradi,GH,83.26,broken clouds,4.8845,-1.7554,Raybow International Hotel
296,Klaksvik,FO,34.72,overcast clouds,62.2266,-6.589,Airbnb rooms
297,Beitbridge,ZW,74.93,overcast clouds,-22.2167,30.0,Beitbridge Express Hotel
298,Amalapuram,IN,79.9,overcast clouds,16.5833,82.0167,swayamprabha service apartments
300,Concordia,AR,76.78,few clouds,-31.393,-58.0209,Palmar Hotel Casino
301,Asau,RO,39.96,overcast clouds,46.4333,26.4,Casa Mika Ciobanus
303,Castro,BR,77.59,overcast clouds,-24.7911,-50.0119,CHACARA BAILLY
304,Rocha,UY,79.75,clear sky,-34.4833,-54.3333,Hotel Arrarte
305,Husavik,IS,33.8,overcast clouds,66.0449,-17.3389,Bjarnabúð
306,Cabedelo,BR,84.87,broken clouds,-6.9811,-34.8339,Hotel Pigalle
307,Aklavik,CA,1.4,few clouds,68.2191,-135.0107,Aklavik Inn
308,Luanda,AO,80.6,few clouds,-8.8368,13.2343,EPIC SANA Luanda
309,Uthal,PK,81.68,overcast clouds,25.8072,66.6219,Al-Mustafa Hotel
310,Daru,PG,79.97,overcast clouds,-9.0763,143.2092,Daru Lodge
311,Vila Velha,BR,84.15,scattered clouds,-20.3297,-40.2925,Hotel Vitória Palace
312,Shenjiamen,CN,60.71,broken clouds,29.9576,122.298,Jinjiang Inn Zhoushan Putuo Shenjiamen
313,Havre-Saint-Pierre,CA,43.16,broken clouds,50.2334,-63.5986,Auberge Niapiskau
314,Portland,US,47.1,overcast clouds,45.5234,-122.6762,Embassy Suites by Hilton Portland Downtown
315,Caravelas,BR,84.92,clear sky,-17.7125,-39.2481,Pousada dos Navegantes
316,Tigzirt,DZ,59.86,few clouds,36.8886,4.1198,Bloc D tazoumbirt (amar)
317,Alice Springs,AU,69.22,broken clouds,-23.7,133.8833,Desert Palms Alice Springs
318,Tarko-Sale,RU,23.4,light snow,64.9225,77.785,Yubileynaya
320,Qaqortoq,GL,35.02,overcast clouds,60.7167,-46.0333,Siniffik Inn
321,Norman Wells,CA,8.64,scattered clouds,65.282,-126.8329,Heritage Hotel
322,Namatanai,PG,79.47,broken clouds,-3.6667,152.4333,Seagulls Inn Namatani
323,Sechura,PE,82.72,broken clouds,-5.5569,-80.8222,Hospedaje Costa Bella
324,Gizo,SB,82.24,overcast clouds,-8.103,156.8419,Imagination Island
326,Forest,US,56.12,broken clouds,37.3638,-79.2897,Days inn
327,Ignalina,LT,37.45,broken clouds,55.35,26.1667,"Hotel - Restaurant ""Zuvedra"""
328,Buraydah,SA,86.45,scattered clouds,26.326,43.975,Mövenpick Qassim
329,Big Spring,US,85.23,clear sky,32.2504,-101.4787,Hampton Inn & Suites Big Spring
330,Killybegs,IE,51.51,overcast clouds,54.6333,-8.45,Tara Hotel
332,Hammerfest,NO,36.05,scattered clouds,70.6634,23.6821,Skytterhuset
333,Bandarban,BD,74.07,clear sky,22.1965,92.2262,"Hilltop, Hafazgona, Bandarban"
334,Mareeba,AU,74.48,broken clouds,-17.0,145.4333,Trinity Plains Tourist Park
335,Kupang,ID,76.17,clear sky,-10.1667,123.5833,Hotel On The Rock by Prasanthi
336,Mackay,AU,75.69,scattered clouds,-21.15,149.2,International Lodge Motel
337,Chicama,PE,80.04,overcast clouds,-7.8447,-79.1469,Balihai Bungalows
338,Stjordalshalsen,NO,39.51,broken clouds,63.4681,10.9262,"Radisson Blu Hotel, Trondheim Airport"
339,Nanakuli,US,77.04,overcast clouds,21.3906,-158.1547,Camp Pālehua
340,Pitimbu,BR,84.79,broken clouds,-7.4706,-34.8086,Reserva do Abiaí
342,Ilhabela,BR,79.23,overcast clouds,-23.7781,-45.3581,Ilha Flat Hotel
343,Zhigansk,RU,-1.77,clear sky,66.7697,123.3711,Gostinichnyy Kompleks Aylgy
344,Hualmay,PE,73.02,scattered clouds,-11.0964,-77.6139,Hotel Villa Kitzia Huacho
345,Katsuura,JP,61.21,broken clouds,35.1333,140.3,Katsuura Hotel Mikazuki
346,Guliston,UZ,73.29,overcast clouds,40.4897,68.7842,Sadafhotel
347,Westport,US,49.8,broken clouds,41.1415,-73.3579,The Inn at Longshore
348,Tommot,RU,10.33,overcast clouds,58.9564,126.2925,Gostinitsa Tommot
349,Gondar,ET,75.61,overcast clouds,12.6,37.4667,L Shape Hotel
351,Coahuayana,MX,91.45,broken clouds,18.7333,-103.6833,El rranchito michuacan de ocampos
352,College,US,14.58,overcast clouds,64.8569,-147.8028,Pike's Waterfront Lodge
353,Grand-Lahou,CI,82.96,few clouds,5.1367,-5.0242,Hotel Beatitude de Grand Lahou
354,Waipawa,NZ,48.04,clear sky,-41.4122,175.5153,Tora Coastal Walk
355,Manosque,FR,56.55,scattered clouds,43.8288,5.7869,Hôtel Restaurant Campanile Manosque
357,Birjand,IR,63.07,scattered clouds,32.8663,59.2211,Birjand Tourist Hotel
358,Hanzhong,CN,64.36,clear sky,33.0728,107.0303,Guorui Hotel
359,Toamasina,MG,77.0,broken clouds,-18.1667,49.3833,Hotel H1
360,Srandakan,ID,76.19,overcast clouds,-7.9386,110.2506,Puri Brata
361,Gat,IL,70.39,scattered clouds,31.61,34.7642,OlusHome
362,Samarai,PG,83.62,scattered clouds,-10.6167,150.6667,Nuli Sapi
363,Maldonado,UY,80.22,clear sky,-34.6667,-54.9167,La Cimarrona
364,Hervey Bay,AU,71.83,scattered clouds,-25.2986,152.8535,Shelly Bay Resort
365,Cayenne,GF,83.08,broken clouds,4.9333,-52.3333,Hôtel Le Dronmi
366,Ilo,PE,70.93,scattered clouds,-17.6394,-71.3375,Torreblanca Hotel
367,Pathalgaon,IN,83.25,few clouds,22.5667,83.4667,Queens Park Marriage Garden
369,Padang,ID,78.85,light rain,-0.9492,100.3543,Mercure Padang
370,Petropavl,KZ,40.35,few clouds,54.8753,69.1628,Отель GREENWICH
371,Waitati,NZ,51.8,clear sky,-45.75,170.5667,Arden Country House BnB Dunedin
372,Chamba,IN,71.85,clear sky,32.5667,76.1333,NotOnMap - Rafi's House
373,Coihueco,CL,52.54,broken clouds,-36.6167,-71.8333,Frutillares Centro Coihueco
374,Kroya,ID,77.54,overcast clouds,-7.6331,109.2461,Devina kost & Homestay Kroya
375,Nago,JP,73.83,overcast clouds,26.5881,127.9761,Hotel Yugaf Inn Okinawa
376,Sokoni,TZ,84.06,clear sky,-6.4333,39.55,Ujamaa Beach Resort
377,Mizdah,LY,69.44,clear sky,31.4451,12.9801,محمدالمبروك الاريقط
378,Northam,GB,51.62,overcast clouds,51.0333,-4.2167,Durrant House Hotel
379,Methoni,GR,57.06,clear sky,36.8197,21.7049,Methoni Beach Hotel
380,Aljezur,PT,61.83,broken clouds,37.3191,-8.8033,Amazigh Hostel
381,Revelstoke,CA,37.42,scattered clouds,50.9832,-118.2023,Best Western Plus Revelstoke
383,Princeton,US,78.03,clear sky,25.5384,-80.4089,American Best Inn
384,Yatou,CN,51.58,few clouds,37.15,122.3833,GreenTree Hotel Rongcheng Bus Station
385,Cotonou,BJ,85.98,few clouds,6.3654,2.4183,Novotel Cotonou Orisha
386,Oliveira Do Bairro,PT,62.31,broken clouds,40.5146,-8.4939,Hotel Paraiso
387,Ankang,CN,67.01,clear sky,32.68,109.0172,安琪酒店
388,Da Nang,VN,75.18,few clouds,16.0678,108.2208,Grand Mercure Danang
389,Pakala,IN,77.45,overcast clouds,13.4667,79.1167,ViswanathBollineni guesthouse @
390,Tura,IN,70.79,scattered clouds,25.5198,90.2201,Hotel RIKMAN Continental
391,Inuvik,CA,2.26,broken clouds,68.3499,-133.7218,Nova Inn Inuvik
392,Itacarambi,BR,100.27,clear sky,-15.1022,-44.0919,POUSADA CAMALEÃO
393,Lata,PT,59.81,broken clouds,40.1629,-8.3327,Casa Maquia
395,Grand Gaube,MU,77.4,broken clouds,-20.0064,57.6608,Veranda Paul et Virginie Hotel & Spa
396,Hope Mills,US,61.2,clear sky,34.9704,-78.9453,"Holiday Inn Express & Suites Hope Mills-Fayetteville Arpt, an IHG Hotel"
397,Sayula,MX,83.57,clear sky,19.8667,-103.6167,Gran Casa Sayula Hotel Galeria And Spa
398,Shahr-E Babak,IR,64.85,clear sky,30.1165,55.1186,Duna Ecolodge
399,Kaduqli,SD,91.83,overcast clouds,11.0167,29.7167,Nussyba
400,Sabha,LY,79.86,clear sky,27.0377,14.4283,Foundation Taaj Asala for Historical Research and Archeology
402,Meulaboh,ID,78.15,overcast clouds,4.1363,96.1285,Kost Pria
403,Santa Rosa,PH,81.09,light rain,14.3122,121.1114,Erlyn’s Sta Rosa City Home
404,Itarema,BR,80.01,light rain,-2.9248,-39.9167,"Sea Lounge! Bar, Club & Restaurant"
405,Chumikan,RU,17.62,overcast clouds,54.7183,135.315,Fortuna
406,Oeiras Do Para,BR,80.24,overcast clouds,-2.0031,-49.8544,Araticu Soft Hotel
407,Sept-Iles,CA,41.05,broken clouds,50.2001,-66.3821,Comfort Inn
408,Koumac,NC,76.59,broken clouds,-20.5667,164.2833,Le Monitel
409,Nemuro,JP,36.72,overcast clouds,43.3236,145.575,Hotel Nemuro Kaiyoutei
410,Pravia,ES,75.49,few clouds,43.4906,-6.1508,Antiguo Casino Hotel
411,Luzhou,CN,72.5,clear sky,28.8724,105.4405,Shijichun Hotel
412,Olinda,BR,83.93,scattered clouds,-8.0089,-34.8553,Flat Quatro Rodas Olinda
413,Ilulissat,GL,21.22,broken clouds,69.2167,-51.1,Hotel Arctic
414,Kruisfontein,ZA,65.88,overcast clouds,-34.0033,24.7314,Oyster Bay House Rental
415,Garhi Khairo,PK,93.58,overcast clouds,28.0606,67.9803,Bandh Ali Hotel
416,Matara,LK,78.76,overcast clouds,5.9485,80.5353,Amaloh Boutique Resort
417,Jimma,ET,66.42,overcast clouds,7.6667,36.8333,Jimma Central Hotel - ጂማ ሴንትራል ሆቴል
418,Cagsiay,PH,79.39,light rain,14.2167,121.75,Badjao
419,Richards Bay,ZA,67.86,overcast clouds,-28.783,32.0377,BON Hotel Waterfront Richards Bay
420,Gaoual,GN,107.17,broken clouds,11.75,-13.2,Hotel koliba
421,Halifax,CA,44.69,overcast clouds,44.6453,-63.5724,Hotel Halifax
422,Saldanha,ZA,77.05,clear sky,-33.0117,17.9442,Blue Bay Lodge
423,Ahipara,NZ,58.3,scattered clouds,-35.1667,173.1667,Ahipara Holiday Park
424,Cam Ranh,VN,76.96,few clouds,11.9214,109.1591,OYO 598 Peony Hotel
425,Umea,SE,31.93,overcast clouds,63.8284,20.2597,Hotel Avenue | ProfilHotels
426,Ca Mau,VN,76.59,broken clouds,9.1769,105.15,Khách Sạn Mường Thanh Luxury Cà Mau
427,Escanaba,US,47.25,clear sky,45.7453,-87.0646,Sunset Lodge
428,Gori,GE,55.24,overcast clouds,41.9842,44.1158,Guesthouse MK
429,Bontang,ID,76.75,overcast clouds,0.1333,117.5,KOPKAR Hotel Bintang Sintuk
431,Luangwa,ZM,71.76,overcast clouds,-15.6167,30.4167,Gerasimos Safari Lodge
432,Mecca,SA,84.07,clear sky,21.4267,39.8261,"Makkah Clock Royal Tower, A Fairmont Hotel"
433,Mehamn,NO,37.35,clear sky,71.0357,27.8492,Mehamn Arctic Hotel AS
434,Qianguo,CN,51.71,overcast clouds,45.1171,124.8568,Guo'er Luosi Hotel
435,Santa Helena,BR,76.91,overcast clouds,-2.2311,-45.3,Turi Plaza Hotel
436,Bardiyah,LY,64.27,clear sky,31.7561,25.0865,بورتو بردية
437,Rapid City,US,44.49,overcast clouds,44.0805,-103.231,"Hotel Alex Johnson Rapid City, Curio Collection by Hilton"
438,Jining,CN,65.1,clear sky,35.405,116.5814,Yunhe Star Hotel
439,Trud,BG,42.78,overcast clouds,42.2333,24.7333,Къща ХВ
440,Boca Do Acre,BR,82.42,overcast clouds,-8.7522,-67.3978,Hotel Sao Pedro
441,Pemba,MZ,84.9,few clouds,-12.974,40.5178,Guesthouse Samotina
442,Muros,ES,64.69,scattered clouds,42.7762,-9.0603,Apartment Av. Castelao
443,Mogadishu,SO,81.93,scattered clouds,2.0371,45.3438,Hotel Juba
444,Myrtle Beach,US,66.09,clear sky,33.6891,-78.8867,Bay View Resort Myrtle Beach
445,Casin,RO,41.83,overcast clouds,46.2,26.75,Hanul Marisano
446,Barcelos,PT,66.92,broken clouds,41.5388,-8.6151,Hotel Restaurante Bagoeira
447,Porto Velho,BR,87.85,scattered clouds,-8.7619,-63.9039,Ecos Hotel Conforto
448,Ugoofaaru,MV,85.24,overcast clouds,5.6667,73.0,Ungoofaaru Inn
449,Pangnirtung,CA,19.4,broken clouds,66.1451,-65.7125,Kilabuk Lodge
450,Kisangani,CD,72.28,moderate rain,0.5167,25.2,Grand Ramela Hotel
451,Malanje,AO,66.47,light rain,-9.5402,16.341,Hotel Ginga
452,Sao Joao Da Barra,BR,86.09,scattered clouds,-21.6403,-41.0511,Pousada Porto De Canoas
453,Port Hedland,AU,78.85,clear sky,-20.3167,118.5667,The Esplanade Hotel
454,Sehithwa,BW,71.8,light rain,-20.4667,22.7167,MONLEK GUEST HOUSE
455,Ngunguru,NZ,62.26,few clouds,-35.6167,174.5,Pacific Rendezvous Motel Resort
456,Morehead,US,69.78,clear sky,37.2711,-87.1764,CCI Express Inn
457,Tongren,CN,67.86,clear sky,27.7172,109.1853,Fanjing Mountain International Conference Center
459,Hofn,IS,35.73,overcast clouds,64.2539,-15.2082,Hótel Höfn
460,Moose Factory,CA,30.2,overcast clouds,51.2585,-80.6094,Moosonee Lilypad
461,Maura,NO,48.31,clear sky,60.25,11.0167,Kringler guesthouse AS
462,Vilhena,BR,84.42,broken clouds,-12.7406,-60.1458,Hotel Mirage
464,Neuquen,AR,58.89,broken clouds,-38.9516,-68.0591,Hotel del Comahue
465,Bonavista,CA,35.6,overcast clouds,48.6499,-53.1147,Sweet Sharons bnb
466,Nikolskoye,RU,42.69,broken clouds,59.7035,30.7861,Tourist House - Sablino
467,Abbeville,FR,52.48,overcast clouds,50.1,1.8333,Hôtel Mercure Abbeville Centre - Porte de la Baie de Somme
469,Boulsa,BF,101.91,broken clouds,12.6675,-0.5758,Auberge Relwende
470,Port Blair,IN,80.64,mist,11.6667,92.75,"Welcomhotel By ITC Hotels, Bay Island, Port Blair"
471,Grand Forks,US,42.78,overcast clouds,47.9417,-97.4337,Warrior Inn
472,Khuzdar,PK,78.64,overcast clouds,27.7384,66.6434,jhalwan Rent A Car Compny Moola Chotok
473,Yar-Sale,RU,33.08,light snow,66.8333,70.8333,Yalemd
474,Shihezi,CN,59.32,overcast clouds,44.3,86.0333,Home Inn Shihezi Dongwu Road Century Square
475,Polson,US,37.22,overcast clouds,47.6936,-114.1632,Americas Best Value Port Polson Inn
476,Chachapoyas,PE,65.46,light rain,-6.2317,-77.869,Teresita
477,Pioner,RU,27.84,clear sky,55.3166,85.9508,Park-hotel Akvarium
478,Mistelbach,AT,47.75,broken clouds,48.57,16.5767,Tour-Motel
479,Kharp,RU,33.3,light snow,66.8014,65.8081,"Hotel ""Sob"""
480,Yagodnoye,RU,-21.95,overcast clouds,62.55,149.6667,Гостевой дом
481,Baneh,IR,52.39,overcast clouds,35.9975,45.8853,ساختمان زیتون
483,Riyadh,SA,84.34,clear sky,24.6877,46.7219,"InterContinental Riyadh, an IHG Hotel"
484,Oyama,JP,66.58,scattered clouds,36.3,139.8,Toyoko Inn Oyama-eki Higashi-guchi No.1
485,Surt,LY,63.41,clear sky,31.2089,16.5887,الهادي ابوشعاله سرت
486,Benguela,AO,76.71,light rain,-12.5763,13.4055,Hotel Praia Morena
487,Peniche,PT,66.07,broken clouds,39.3558,-9.3811,Hotel Star inn Peniche
488,Bosaso,SO,82.18,clear sky,11.2842,49.1816,Red Sea Hotel
489,Aviles,ES,78.19,few clouds,43.5547,-5.9248,"Palacio de Avilés, Affiliated by Meliá"
490,Rakiv Lis,UA,38.35,overcast clouds,51.6217,24.9243,Turiya Hotelʹ
492,Doctor Juan Leon Mallorquin,PY,85.73,overcast clouds,-25.4,-55.2667,Hotel Puma S.A.
493,Acarau,BR,82.17,moderate rain,-2.8856,-40.12,castelo pizzaria
494,Nishihara,JP,73.06,mist,26.1842,127.7558,Minshuku Agaihama
495,Sur,OM,88.14,overcast clouds,22.5667,59.5289,Sur Plaza Hotel
496,Nevelsk,RU,30.9,light snow,46.6733,141.8633,Gostinitsa Viktoriya
497,Tabou,CI,83.39,scattered clouds,4.423,-7.3528,hotêl doufoulougou
498,Hendersonville,US,72.12,broken clouds,36.3048,-86.62,Hyatt Place Nashville/Hendersonville
499,Anadyr,RU,19.9,clear sky,64.75,177.4833,Отке17.ру — жильё для командированных
500,Cravo Norte,CO,91.18,overcast clouds,6.3017,-70.2041,Hotel Potosí Los Mirtos
501,Chatham,GB,52.93,overcast clouds,51.3789,0.5279,King Charles Hotel in Kent
503,Kalmunai,LK,79.39,overcast clouds,7.4167,81.8167,VS Villa
504,Japura,ID,73.49,broken clouds,-0.3167,102.35,Rumah mbah Jamah
506,Mikhaylovka,RU,59.7,overcast clouds,50.06,43.2379,5 Komnat
507,Urcos,PE,63.52,broken clouds,-13.6861,-71.6228,Qali Samanawasi
510,Gigmoto,PH,78.82,overcast clouds,13.7796,124.39,Cj's Travellers Inn
511,Nantucket,US,55.54,clear sky,41.2835,-70.0995,Jared Coffin House
512,Ashoknagar,IN,90.73,clear sky,24.5667,77.7167,Hotel Rajshree
513,Bilma,NE,93.51,clear sky,18.6853,12.9164,Expeditions Ténére voyages
514,Esmeraldas,BR,89.71,broken clouds,-19.7625,-44.3139,Bom Será - Marcinho e Fernanda
515,Tazovskiy,RU,12.52,overcast clouds,67.4667,78.7,TazHostel
516,Marfino,RU,43.05,clear sky,55.7028,37.3822,Nemchinovka-Park
517,Seryshevo,RU,32.63,light snow,51.0933,128.3786,Sel'skiy Dom Kul'tuty
518,Saurimo,AO,66.11,moderate rain,-9.6608,20.3916,Hotel Kawissa Saurimo
519,Skelleftea,SE,32.36,overcast clouds,64.7507,20.9528,Quality Hotel Skellefteå Stadshotell
520,Chapais,CA,29.98,overcast clouds,49.7834,-74.8492,Hôtel Opémiska
524,Byron Bay,AU,65.95,few clouds,-28.65,153.6167,Backpackers Inn
526,Bocas Del Toro,PA,79.07,overcast clouds,9.3333,-82.25,Hotel Bocas del Toro
527,Namibe,AO,71.73,scattered clouds,-15.1961,12.1522,Hotel Chik Chik Namibe
528,Yashkul,RU,60.17,clear sky,46.1711,45.3435,"Gostinitsa ""Putnik"""
529,Labytnangi,RU,33.57,overcast clouds,66.6572,66.4183,Priuralye Hotel
530,Ilebo,CD,72.3,broken clouds,-4.3167,20.5833,Hôtel BUMAK
532,Vernon,CA,45.61,overcast clouds,50.2581,-119.2691,Prestige Vernon Lodge and Conference Centre
533,Changli,CN,53.85,clear sky,39.7042,119.1506,7Days Inn Qinhuangdao Changli Jieyang Street
534,Flin Flon,CA,30.04,overcast clouds,54.7682,-101.865,Victoria Inn Flin Flon
535,Cumadcad,PH,76.39,heavy intensity rain,12.9806,123.7892,BERMAS FAMILY
536,Mana,GF,81.84,overcast clouds,5.6592,-53.7767,LE SAMANA
537,Rovaniemi,FI,33.21,overcast clouds,66.5,25.7167,Arctic City Hotel
538,Saint-Francois,FR,53.42,clear sky,46.4154,3.9054,Manoir Du Bonheur
540,Assiniboia,CA,39.02,broken clouds,49.6334,-105.9845,Canalta Hotel Assiniboia
542,San Andres,CO,86.02,few clouds,12.5847,-81.7006,Hotel Arena Blanca
543,Rawson,AR,61.57,clear sky,-43.3002,-65.1023,Hosteria Sampedro
544,Paysandu,UY,80.6,clear sky,-32.3214,-58.0756,Gran Hotel Paysandú
546,Cidreira,BR,74.16,clear sky,-30.1811,-50.2056,Hotel Castelo
547,San Patricio,US,86.16,few clouds,28.017,-97.5169,"Motel 6 Sinton, TX"
548,Srivaikuntam,IN,83.16,moderate rain,8.6167,77.9333,KOWSALYARAMAMOORTHY
550,Red Bank,US,50.97,broken clouds,40.3471,-74.0643,The Molly Pitcher Inn
551,Campanario,ES,67.17,scattered clouds,38.8644,-5.6174,PENSION MALAY
552,Salto,UY,76.87,few clouds,-31.3833,-57.9667,Gran Hotel Uruguay
554,Puri,IN,82.92,scattered clouds,19.8,85.85,OYO 1577 Hotel Shree Hari Grand
555,Washougal,US,46.76,overcast clouds,45.5826,-122.3534,Camas Boutique Hotel
556,Muravlenko,RU,28.04,overcast clouds,63.7898,74.523,Hostel Rus Muravlenko
557,Roblin,CA,34.03,clear sky,51.23,-101.3565,"Harvest Moon Inn, Roblin Manitboa"
558,Store Heddinge,DK,42.91,broken clouds,55.3097,12.3889,Vangeled Gaard B&B
559,Tallahassee,US,76.32,clear sky,30.4383,-84.2807,Four Points by Sheraton Tallahassee Downtown
560,Sidlaghatta,IN,78.89,broken clouds,13.3881,77.8628,Shri Rama vilas hotel
561,El Tigre,VE,95.38,broken clouds,8.8875,-64.2454,Hotel Santa Cruz
562,Bonaventure,CA,34.38,overcast clouds,48.0457,-65.4926,Riôtel Bonaventure (N° établissement : 1271)
563,Mut,TR,62.47,scattered clouds,36.6439,33.4389,Konak Otel
564,Sfantu Gheorghe,RO,36.93,overcast clouds,45.8667,25.7833,Hotel Park
565,Thiers,FR,59.32,broken clouds,45.8333,3.5,Hôtel Eliotel
568,Kangaatsiaq,GL,22.44,overcast clouds,68.3065,-53.4641,Nukissiorfiit
569,Nouadhibou,MR,64.56,scattered clouds,20.931,-17.0347,El Medina
571,Jeremie,HT,80.85,broken clouds,18.65,-74.1167,Auberge’Inn
572,Tolaga Bay,NZ,53.29,clear sky,-38.3667,178.3,Tolaga Bay Motel
573,Owando,CG,77.99,broken clouds,-0.4819,15.8999,Exaunel Hotel Owando
574,Bonthe,SL,82.85,light rain,7.5264,-12.505,Bonthe Holiday Village
575,Igrim,RU,35.62,overcast clouds,63.1906,64.4162,Obshchezhitiye Uchebno-Proizvodstvennogo Tsentra
576,Hokitika,NZ,52.47,overcast clouds,-42.7167,170.9667,Beachfront Hotel Hokitika
578,Foso,GH,80.17,light rain,5.7012,-1.2866,Pristina Cottage
579,Galesong,ID,73.42,clear sky,-5.3166,119.3661,Sapriadi Appy
580,Arden,DK,40.19,few clouds,56.769,9.8618,Rold Skov Bed and Breakfast
581,Gold Coast,AU,68.0,clear sky,-28.0,153.4333,Mantra Towers of Chevron Surfers Paradise
582,Kiama,AU,65.68,scattered clouds,-34.6833,150.8667,The Sebel Kiama Harbourside
583,Hambantota,LK,80.17,broken clouds,6.1241,81.1185,Bungalow 63
585,Never,FR,55.11,clear sky,46.9896,3.159,Hôtel Kyriad Nevers Centre
587,Purpe,RU,26.64,snow,64.4803,76.6897,"Gostinnitsa ""Valentina"""
588,Kawalu,ID,72.39,overcast clouds,-7.3817,108.2082,West Jontor
589,Savannakhet,LA,80.82,few clouds,16.566,104.751,โรงแรม ริเวอร์ ฟร้อนท์ (Riverfront Hotel)
590,Strezhevoy,RU,11.71,overcast clouds,60.7333,77.5889,Sibiryachka
591,Nyimba,ZM,68.41,overcast clouds,-14.5566,30.8149,Dali Dali Lodge
592,Sartell,US,55.35,clear sky,45.6216,-94.2069,AmericInn by Wyndham Sartell
595,Lima,PE,74.39,broken clouds,-12.0432,-77.0282,Hotel Kamana
597,Coos Bay,US,46.99,overcast clouds,43.3665,-124.2179,Best Western Holiday Hotel
598,Plettenberg Bay,ZA,65.86,scattered clouds,-34.0527,23.3716,Thanda Vista B&B
599,Chambersburg,US,45.19,overcast clouds,39.9376,-77.6611,"Holiday Inn Express & Suites Chambersburg, an IHG Hotel"
601,San Pedro,PH,79.83,light rain,14.35,121.0167,Esquivel's Garden And Resort
602,Suez,EG,68.56,few clouds,29.9737,32.5263,Green House
603,Shaowu,CN,66.83,broken clouds,27.3409,117.4831,Yijie Express Hotel
604,Shahrud,IR,52.65,few clouds,36.4182,54.9763,Royal Hotel
605,Butare,RW,59.31,overcast clouds,-2.5967,29.7394,Light House Hotel
606,Berlevag,NO,37.4,broken clouds,70.8578,29.0864,Kvitbrakka
607,Tutoia,BR,81.34,light rain,-2.7619,-42.2744,Pousada Guará's
608,Wuwei,CN,49.57,overcast clouds,37.9281,102.6414,Thank Inn Chain Hotel gansu wuwei liangzhou district xiguan middle road
609,Puerto Escondido,MX,87.94,scattered clouds,15.85,-97.0667,Aldea del Bazar Hotel and Spa
610,Tromso,NO,37.42,clear sky,69.6496,18.957,"Radisson Blu Hotel, Tromsø"
611,Zharkent,KZ,58.8,broken clouds,44.1628,80.0,гостиница Satti
612,Solano,US,70.45,clear sky,38.2333,-121.9511,Westwind Inn
613,Sao Joao Do Paraiso,BR,94.95,few clouds,-15.3136,-42.0144,Avenida Palace Hotel
614,Atasu,KZ,46.67,overcast clouds,48.6814,71.6433,Dostyk
615,Bayir,TR,59.52,few clouds,37.2687,28.2167,Hotel Babadag
618,Cortez,US,53.04,clear sky,37.3489,-108.5859,Sand Canyon National 9 Inn
619,Acajutla,SV,89.82,few clouds,13.5928,-89.8275,Laureles
620,Oktyabrskiy,RU,39.31,overcast clouds,54.4815,53.471,Гостиница Октябрьская
621,Wad Rawah,SD,97.9,clear sky,15.1603,33.1397,ود الترابي
622,Harwich,GB,51.35,overcast clouds,51.9419,1.2844,Premier Inn Harwich hotel
623,Kalas,IN,87.1,overcast clouds,18.1667,74.8,Hotel Durvankur
624,Cuxhaven,DE,43.97,scattered clouds,53.8718,8.6909,Best Western Hotel Das Donners
625,Khani,GE,56.77,overcast clouds,41.9563,42.9566,კურორტი ზეკარი/Resort Zekari
626,Stykkisholmur,IS,37.0,overcast clouds,65.0757,-22.7297,Fosshótel Stykkishólmur
627,Saint Paul,US,58.91,clear sky,44.9444,-93.0933,"InterContinental Saint Paul Riverfront, an IHG Hotel"
628,Champerico,GT,91.94,scattered clouds,14.3,-91.9167,"Hotel y restaurante ""El Diamante"""
629,Cusco,PE,61.72,broken clouds,-13.5183,-71.9781,"Monasterio, A Belmond Hotel, Cusco"
630,Novopavlovka,RU,27.07,overcast clouds,51.2172,109.2091,Vizit
631,Barguzin,RU,25.43,overcast clouds,53.6167,109.6167,"Gostevoy Dom S.barguzin ""Vizit"""
632,Kununurra,AU,67.98,few clouds,-15.7667,128.7333,Hotel Kununurra
633,San Vicente,AR,73.69,overcast clouds,-26.6167,-54.1333,Complejo Turístico Farelluk
634,Ochakiv,UA,47.35,overcast clouds,46.6128,31.5498,Briz
635,Soe,ID,63.19,few clouds,-9.8607,124.284,Dena Hotel
636,Nizhniy Kuranakh,RU,7.11,broken clouds,58.8353,125.4869,Park Pobedy
637,Moulins,FR,54.27,broken clouds,46.5,3.3333,ibis Moulins Sud
638,Blanquefort,FR,66.42,clear sky,44.9125,-0.6366,OTELLIA (Auberge de jeunesse)
639,Mao,ES,57.76,clear sky,39.8885,4.2658,ARTIEM Capri
640,Ambon,ID,75.34,few clouds,-3.6954,128.1814,Swiss-Belhotel Ambon
641,Belmonte,BR,83.73,few clouds,-15.8631,-38.8828,Pousada Monte Carmelo O Pão
642,Mabaruma,GY,80.62,broken clouds,8.2,-59.7833,Monty Brooms Guest House
643,Taraza,CO,86.27,overcast clouds,7.5836,-75.4007,Hotel Monteverde
644,Bratsk,RU,28.89,overcast clouds,56.1325,101.6142,"Gostinitsa ""Shvedka"""
645,Kautokeino,NO,31.15,snow,69.0125,23.0412,Thon Hotel Kautokeino
647,Wanning,CN,71.74,few clouds,18.8003,110.3967,Paradise Hotel
649,Dunedin,NZ,50.81,clear sky,-45.8742,170.5036,Scenic Hotel Southern Cross
651,Wenzhou,CN,67.71,broken clouds,27.9994,120.6668,温州喜来登酒店
652,Matadi,CD,81.48,light rain,-5.8167,13.45,Hotel Vivi Palace
653,Manono,CD,75.11,scattered clouds,-7.3,27.4167,Hotel hewa bora
654,Turmalina,BR,85.33,scattered clouds,-17.2856,-42.73,Hotel Cristal
655,Pelym,RU,39.94,overcast clouds,61.0108,61.9978,Obshchezhitiye Pelymskogo Lpumg
656,Luleburgaz,TR,56.12,overcast clouds,41.4039,27.3592,alparslan rant a car
657,Kieta,PG,78.51,overcast clouds,-6.2167,155.6333,Uruna Bay Retreat
658,Tateyama,JP,58.1,broken clouds,34.9833,139.8667,Tateyama Seaside Hotel
659,Djambala,CG,77.81,overcast clouds,-2.5447,14.7533,Hotel Ravin D'or
660,Andrychow,PL,38.12,overcast clouds,49.855,19.3383,Noclegi Nad Basenem
661,Dauphin,CA,42.94,clear sky,51.1494,-100.0502,Canway Inn & Suites
662,Fredericksburg,US,58.01,broken clouds,38.3032,-77.4605,Courtyard by Marriott Fredericksburg Historic District
665,Palasa,IN,78.51,overcast clouds,18.7667,84.4167,Balaji tifen & meals veg & non veg hotel
666,Okha,RU,17.28,overcast clouds,53.5739,142.9478,Sakhalin-Sfera
667,Visby,SE,44.06,clear sky,57.6409,18.296,Best Western Solhem Hotel Visby
668,Fare,PF,82.02,clear sky,-16.7,-151.0167,Maitai Lapita Village Huahine
669,Guarapari,BR,81.9,broken clouds,-20.6667,-40.4975,Hotel Porto do Sol
670,Sulangan,PH,77.97,heavy intensity rain,11.1373,123.7228,Maia's Beach Resort
672,Bima,ID,74.8,overcast clouds,-8.4667,118.7167,Lambitu Hotel
673,Marsa Matruh,EG,62.8,few clouds,31.3525,27.2453,Beau Site
674,Kanniyakumari,IN,82.49,overcast clouds,8.0833,77.5667,Sparsa Kanyakumari
675,Kamuli,UG,71.44,overcast clouds,0.9472,33.1197,Century Hotel Limited And laundry Services
676,Nikel,RU,35.78,overcast clouds,69.4128,30.222,Severnoe Siyanie
677,Mahenge,TZ,63.75,broken clouds,-8.6833,36.7167,Mkondosii Guest House
